City_ID,City,Lat,Lng,Max Temp,Humidity,Cloudiness,Wind Speed,Country,Date
0,saint george,37.1041,-113.5841,33.57,23,0,8.23,US,1691889291
1,pisco,-13.7,-76.2167,19.03,77,0,6.17,PE,1691889291
2,nizhniy kuranakh,58.8353,125.4869,22.29,68,75,1.6,RU,1691889292
3,georgetown,5.4112,100.3354,28.86,89,40,1.54,MY,1691889112
4,poshekhonye,58.4993,39.1353,19.7,66,0,4.48,RU,1691889292
5,kapaa,22.0752,-159.319,30.18,71,40,6.17,US,1691889292
6,hermanus,-34.4187,19.2345,8.22,84,100,4.36,ZA,1691889293
7,katsuura,35.1333,140.3,28.87,80,65,4.79,JP,1691889293
8,lesozavodsk,45.4794,133.4244,23.87,74,0,2.16,RU,1691889294
9,albany,42.6001,-73.9662,22.63,77,90,1.47,US,1691889294
10,vila velha,-20.3297,-40.2925,22.97,83,0,5.66,BR,1691889294
11,jamestown,42.097,-79.2353,20.95,96,100,4.63,US,1691889214
12,hobart,-42.8794,147.3294,10.03,63,75,4.63,AU,1691889295
13,port hardy,50.6996,-127.4199,19.1,77,20,5.66,CA,1691889295
14,sur,22.5667,59.5289,29.0,64,0,4.21,OM,1691889295
15,qaanaaq,77.484,-69.3632,5.52,74,99,2.78,GL,1691889296
16,avarua,-21.2078,-159.775,27.03,83,40,3.09,CK,1691889296
17,wenatchee,47.4235,-120.3103,35.58,22,0,3.09,US,1691889296
18,new norfolk,-42.7826,147.0587,9.84,54,89,1.48,AU,1691889296
19,mehamn,71.0357,27.8492,12.95,91,19,4.09,NO,1691889297
20,faanui,-16.4833,-151.75,25.49,66,84,6.67,PF,1691889297
21,truth or consequences,33.1284,-107.2528,31.62,30,0,5.14,US,1691889047
22,linares,-35.85,-71.6,8.18,79,25,2.32,CL,1691889298
23,punta arenas,-53.15,-70.9167,0.96,75,100,3.66,CL,1691889248
24,bluff,-46.6,168.3333,9.33,85,100,3.54,NZ,1691889298
25,hasaki,35.7333,140.8333,30.22,80,100,3.42,JP,1691889298
26,sioux lookout,50.1001,-91.917,16.04,82,75,0.0,CA,1691889299
27,atuona,-9.8,-139.0333,26.1,71,23,6.39,PF,1691889299
28,cape town,-33.9258,18.4232,12.84,85,75,1.54,ZA,1691889299
29,vaini,-21.2,-175.2,23.09,73,40,5.66,TO,1691889299
30,beroroha,-21.6667,45.1667,20.17,45,100,0.38,MG,1691889300
31,sao gabriel da cachoeira,-0.1303,-67.0892,22.75,97,53,0.71,BR,1691889300
32,dikson,73.5069,80.5464,4.35,85,75,6.25,RU,1691889301
33,yellowknife,62.456,-114.3525,20.31,72,75,5.66,CA,1691889191
34,arraial do cabo,-22.9661,-42.0278,21.28,91,97,8.61,BR,1691889301
35,port alfred,-33.5906,26.891,15.1,94,100,1.34,ZA,1691889302
36,lata,40.1629,-8.3327,13.19,99,30,0.96,PT,1691889303
37,tasiilaq,65.6145,-37.6368,7.09,58,1,2.91,GL,1691889304
38,cherskiy,68.75,161.3,17.69,42,11,3.54,RU,1691889306
39,ponta delgada,37.7333,-25.6667,23.4,83,40,3.09,PT,1691889306
40,ipixuna,-1.7625,-48.8043,25.71,81,33,2.5,BR,1691889306
41,butaritari,3.0707,172.7902,28.89,72,94,3.71,KI,1691889307
42,werda,-25.2667,23.2833,14.59,42,6,4.7,BW,1691889307
43,saldanha,-33.0117,17.9442,13.1,83,100,2.04,ZA,1691889308
44,zhezkazgan,47.8043,67.7144,10.99,62,6,5.0,KZ,1691889308
45,agirish,61.9247,63.0231,10.32,60,21,1.14,RU,1691889308
46,bandarbeyla,9.4942,50.8122,24.37,75,5,8.55,SO,1691889309
47,churapcha,62.0025,132.4325,25.72,33,100,5.89,RU,1691889309
48,sitka,57.0531,-135.33,15.94,88,100,6.17,US,1691889309
49,quatre cocos,-20.2078,57.7625,22.27,84,81,6.77,MU,1691889310
50,talara,-4.5772,-81.2719,22.42,83,0,5.17,PE,1691889310
51,buyabod,13.4666,122.0526,29.32,73,59,4.43,PH,1691889311
52,mataura,-46.1927,168.8643,9.15,93,100,1.18,NZ,1691889311
53,rikitea,-23.1203,-134.9692,19.68,55,19,5.05,PF,1691889312
54,khatanga,71.9667,102.5,10.66,50,84,0.82,RU,1691889312
55,east london,-33.0153,27.9116,18.03,83,100,4.92,ZA,1691889313
56,hilo,19.7297,-155.09,27.85,75,40,5.14,US,1691889313
57,sao filipe,14.8961,-24.4956,25.67,76,88,0.95,CV,1691889313
58,hambantota,6.1241,81.1185,26.19,89,20,2.06,LK,1691889314
59,pervomayskoye,43.919,46.7102,23.8,80,26,3.51,RU,1691889314
60,puerto ayora,-0.7393,-90.3518,24.19,91,92,1.79,EC,1691889314
61,kruisfontein,-34.0033,24.7314,14.38,85,98,7.14,ZA,1691889315
62,lodi,38.1302,-121.2725,36.33,32,0,2.24,US,1691889297
63,bredasdorp,-34.5322,20.0403,9.26,93,81,3.08,ZA,1691889316
64,ouargaye,11.5033,0.0572,24.37,88,100,2.94,BF,1691889316
65,marion,39.7684,-86.1555,26.21,80,40,4.12,US,1691889271
66,iqaluit,63.7506,-68.5145,9.85,76,20,4.63,CA,1691889317
67,saskylakh,71.9167,114.0833,10.26,43,91,2.18,RU,1691889317
68,goderich,43.7501,-81.7165,22.17,82,91,4.12,CA,1691889317
69,fort saint james,54.4333,-124.25,23.27,43,22,3.69,CA,1691889318
70,verkhnevilyuysk,63.4453,120.3167,19.51,92,99,2.15,RU,1691889318
71,chapais,49.7834,-74.8492,13.88,84,100,0.71,CA,1691889318
72,pegnitz,49.7564,11.545,18.64,94,64,1.38,DE,1691889319
73,shu,43.5983,73.7614,17.82,52,0,1.86,KZ,1691889319
74,neiafu,-18.65,-173.9833,22.38,94,100,4.12,TO,1691889320
75,ndjole,-0.1783,10.7649,24.05,89,100,2.01,GA,1691889320
76,shenjiamen,29.9576,122.298,28.42,85,89,7.55,CN,1691889320
77,ushuaia,-54.8,-68.3,1.81,75,0,2.06,AR,1691889321
78,trelew,-43.249,-65.3051,7.52,48,100,10.22,AR,1691889088
79,half moon bay,37.4636,-122.4286,32.25,65,0,9.26,US,1691889124
80,bay roberts,47.5999,-53.2648,17.96,88,23,4.92,CA,1691889343
81,norman wells,65.282,-126.8329,16.02,63,75,2.57,CA,1691889343
82,provideniya,64.3833,-173.3,17.19,69,83,2.7,RU,1691889343
83,la tuque,47.4334,-72.7824,18.14,82,100,0.51,CA,1691889061
84,hami,42.8,93.45,30.45,25,6,3.41,CN,1691889344
85,san patricio,28.017,-97.5169,32.4,67,0,7.59,US,1691889344
86,butembo,0.15,29.2833,15.12,93,100,0.91,CD,1691889344
87,clyde river,70.4692,-68.5914,4.13,100,100,3.09,CA,1691889345
88,nowa deba,50.4297,21.7508,14.35,76,6,1.84,PL,1691889345
89,neryungri,56.6709,124.6491,15.72,92,100,1.48,RU,1691889346
90,kyshtovka,56.555,76.6271,7.89,82,100,3.5,RU,1691889346
91,hithadhoo,-0.6,73.0833,27.35,76,99,7.17,MV,1691889346
92,cabo san lucas,22.8909,-109.9124,33.67,72,20,6.69,MX,1691889347
93,caravelas,-17.7125,-39.2481,21.79,88,21,2.48,BR,1691889347
94,pevek,69.7008,170.3133,5.42,79,1,2.47,RU,1691889347
95,thompson,55.7435,-97.8558,20.09,64,75,1.03,CA,1691889347
96,ajaccio,42.0,8.9167,20.03,68,0,2.57,FR,1691889348
97,vallenar,-28.5708,-70.7581,16.71,59,0,1.16,CL,1691889348
98,northam,51.0333,-4.2167,17.59,94,95,6.43,GB,1691889348
99,west wendover,40.7391,-114.0733,32.56,18,0,4.63,US,1691889349
100,aklavik,68.2191,-135.0107,7.51,76,100,4.57,CA,1691889349
101,ponta do sol,32.6667,-17.1,27.35,47,0,3.38,PT,1691889350
102,souillac,-20.5167,57.5167,22.21,94,40,4.12,MU,1691889350
103,portland,45.5234,-122.6762,32.67,37,20,5.66,US,1691889207
104,cidreira,-30.1811,-50.2056,11.1,60,4,5.45,BR,1691889351
105,canhotinho,-8.8822,-36.1911,17.46,98,65,1.4,BR,1691889351
106,kodiak,57.79,-152.4072,13.73,88,100,5.14,US,1691889351
107,tayga,56.06,85.6197,10.51,96,96,3.23,RU,1691889352
108,hokitika,-42.7167,170.9667,11.1,85,100,2.99,NZ,1691889352
109,saint-francois,46.4154,3.9054,19.69,88,0,0.0,FR,1691889352
110,te anau,-45.4167,167.7167,5.24,97,100,2.5,NZ,1691889353
111,busselton,-33.65,115.3333,11.52,75,6,1.89,AU,1691889225
112,kaita,34.3667,132.55,30.89,65,0,0.5,JP,1691889353
113,guerrero negro,27.9769,-114.0611,22.05,77,21,8.4,MX,1691889353
114,moron,-34.6534,-58.6198,8.86,45,33,1.24,AR,1691889354
115,garmsar,35.2182,52.3409,27.67,22,0,2.52,IR,1691889354
116,chokurdakh,70.6333,147.9167,15.47,57,56,5.63,RU,1691889355
117,barrow,71.2906,-156.7887,7.01,87,100,5.66,US,1691889355
118,broken hill,-31.95,141.4333,17.11,44,85,1.94,AU,1691889355
119,kudahuvadhoo,2.6708,72.8944,28.3,71,88,6.39,MV,1691889348
120,majalgaon,19.15,76.2333,23.51,81,79,3.0,IN,1691889356
121,talnakh,69.4865,88.3972,6.23,63,0,2.25,RU,1691889356
122,tiksi,71.6872,128.8694,3.96,79,22,4.02,RU,1691889357
123,ruwi,23.5996,58.5507,34.83,63,0,1.59,OM,1691889357
124,saint-philippe,-21.3585,55.7679,20.77,88,81,6.34,RE,1691889357
125,marsa matruh,31.3525,27.2453,25.0,67,0,2.52,EG,1691889358
126,klaksvik,62.2266,-6.589,10.51,99,70,4.58,FO,1691889358
127,alice springs,-23.7,133.8833,25.75,22,5,6.69,AU,1691889358
128,ribeira grande,38.5167,-28.7,23.21,94,100,0.89,PT,1691889359
129,surt,31.2089,16.5887,25.38,67,0,3.75,LY,1691889359
130,laguna,38.421,-121.4238,37.18,25,0,3.6,US,1691889359
131,mahebourg,-20.4081,57.7,22.36,94,40,4.12,MU,1691889360
132,melville,40.7934,-73.4151,25.31,82,0,1.79,US,1691889360
133,natal,-5.795,-35.2094,23.36,94,40,4.12,BR,1691889360
134,carnarvon,-24.8667,113.6333,20.04,61,0,5.56,AU,1691889361
135,sri aman,1.2376,111.4621,27.03,83,20,2.06,MY,1691889361
136,anadyr,64.75,177.4833,14.28,62,40,6.71,RU,1691889361
137,yabelo,4.8833,38.0833,14.4,72,3,2.58,ET,1691889362
138,hobyo,5.3505,48.5268,24.86,86,61,9.84,SO,1691889362
139,college,64.8569,-147.8028,22.34,51,100,6.17,US,1691889362
140,mar del plata,-38.0023,-57.5575,5.05,84,100,2.24,AR,1691889101
141,nikolskoye,59.7035,30.7861,18.94,89,100,2.23,RU,1691889363
142,weinan,34.5036,109.5089,28.9,56,0,1.4,CN,1691889364
143,berck,50.4,1.6,17.99,88,100,3.6,FR,1691889364
144,berlevag,70.8578,29.0864,14.89,88,75,4.12,NO,1691889365
145,sorkjosen,69.8,20.9333,11.0,93,100,0.0,NO,1691889365
146,rawson,-43.3002,-65.1023,7.61,54,100,11.18,AR,1691889366
147,mizan teferi,6.9833,35.5833,15.6,87,85,1.48,ET,1691889366
148,keetmanshoop,-26.5833,18.1333,11.31,69,4,3.03,NA,1691889366
149,baruun-urt,46.6806,113.2792,22.88,43,68,3.92,MN,1691889367
150,codrington,-38.2667,141.9667,9.74,74,99,1.89,AU,1691889367
151,christchurch,-43.5333,172.6333,16.9,63,0,3.09,NZ,1691889225
152,port lincoln,-34.7333,135.8667,13.61,75,88,6.26,AU,1691889369
153,altay,47.8667,88.1167,16.22,75,100,1.24,CN,1691889369
154,bengkulu,-3.8004,102.2655,25.48,79,11,2.56,ID,1691889370
155,tuktoyaktuk,69.4541,-133.0374,6.0,87,100,4.12,CA,1691889370
156,the valley,18.217,-63.0578,29.34,79,100,8.41,AI,1691889370
157,namibe,-15.1961,12.1522,16.23,75,0,4.08,AO,1691889371
158,sibolga,1.7427,98.7792,25.71,81,96,0.78,ID,1691889371
159,novoagansk,61.9449,76.6625,8.73,58,0,5.09,RU,1691889372
160,nizwa,22.9333,57.5333,29.51,52,5,1.17,OM,1691889372
161,skofljica,45.9833,14.5767,16.12,90,10,0.36,SI,1691889372
162,nipawin,53.3668,-104.0009,17.02,88,0,2.06,CA,1691889373
163,nova vicosa,-17.8919,-39.3719,22.33,87,50,3.76,BR,1691889373
164,vocklabruck,48.0167,13.65,20.09,82,100,1.91,AT,1691889374
165,mandalgovi,45.7625,106.2708,24.17,34,100,5.3,MN,1691889375
166,bethel,41.3712,-73.414,25.2,84,75,5.66,US,1691889375
167,kirakira,-10.4544,161.9205,27.19,72,43,6.18,SB,1691889376
168,gat,31.61,34.7642,28.38,100,52,1.97,IL,1691889377
169,svetlyy,54.675,20.1347,17.2,68,20,3.82,RU,1691889377
170,vanavara,60.34,102.2797,20.61,65,59,2.76,RU,1691889378
171,port hedland,-20.3167,118.5667,25.03,44,6,0.0,AU,1691889379
172,haicheng,40.8516,122.7475,21.61,98,100,5.57,CN,1691889267
173,byron bay,-28.65,153.6167,23.73,54,5,5.01,AU,1691889171
174,sao joao da barra,-21.6403,-41.0511,22.69,87,54,3.42,BR,1691889381
175,tessalit,20.1986,1.0114,34.29,27,16,2.79,ML,1691889381
176,husavik,66.0449,-17.3389,7.43,91,57,1.27,IS,1691889382
177,kahului,20.8947,-156.47,31.01,56,20,10.8,US,1691889382
178,veshenskaya,49.6303,41.7334,20.38,74,2,3.32,RU,1691889383
179,zemio,5.0314,25.1361,20.42,98,100,0.74,CF,1691889383
180,westport,41.1415,-73.3579,25.97,84,20,5.14,US,1691889202
181,tsabong,-26.0217,22.401,14.1,39,0,2.75,BW,1691889384
182,xining,36.6167,101.7667,17.64,57,4,1.11,CN,1691889384
183,coihaique,-45.5752,-72.0662,-0.03,100,100,0.0,CL,1691889385
184,nome,64.5011,-165.4064,23.04,57,0,7.2,US,1691889385
185,kapit,2.0167,112.9333,26.68,86,47,0.67,MY,1691889386
186,cascas,-7.4833,-78.8167,19.27,77,62,0.62,PE,1691889386
187,monte alegre de minas,-18.8706,-48.8808,26.24,25,87,1.84,BR,1691889387
188,castro,-24.7911,-50.0119,13.84,99,100,1.51,BR,1691889172
189,poso,-1.3959,120.7524,28.24,66,100,1.35,ID,1691889387
190,airai,-8.9266,125.4092,19.93,55,13,1.8,TL,1691889388
191,saint-augustin,51.226,-58.6502,13.23,87,94,6.32,CA,1691889388
192,sweetwater,25.7634,-80.3731,30.01,80,75,5.66,US,1691889389
193,lompoc,34.6391,-120.4579,27.79,74,0,4.63,US,1691889389
194,ilulissat,69.2167,-51.1,6.01,93,75,2.06,GL,1691889389
195,radhanpur,23.8333,71.6,27.03,74,100,6.74,IN,1691889390
196,sayyan,15.1718,44.3244,17.25,55,8,0.69,YE,1691889391
197,paralimni,35.0375,33.9833,27.31,68,4,2.24,CY,1691889391
198,fasa,28.9383,53.6482,24.58,22,0,0.0,IR,1691889391
199,karla,59.3723,24.9275,12.21,87,0,1.54,EE,1691889392
200,kavieng,-2.5744,150.7967,26.05,86,100,4.28,PG,1691889392
201,kokopo,-4.352,152.2633,27.3,78,100,8.22,PG,1691889393
202,luderitz,-26.6481,15.1594,12.21,96,100,3.47,NA,1691889393
203,cayenne,4.9333,-52.3333,26.02,89,0,1.54,GF,1691889393
204,erenhot,43.6475,111.9767,25.54,30,0,3.52,CN,1691889394
205,manicore,-5.8092,-61.3003,26.5,60,27,1.15,BR,1691889394
206,chimbote,-9.0853,-78.5783,20.17,81,16,4.11,PE,1691889394
207,petropavlovsk-kamchatskiy,53.0452,158.6483,15.33,82,75,5.0,RU,1691889322
208,kaitangata,-46.2817,169.8464,8.7,90,100,1.26,NZ,1691889396
209,pangnirtung,66.1451,-65.7125,8.57,70,18,1.35,CA,1691889396
210,lodja,-3.4833,23.4333,20.86,85,100,1.22,CD,1691889396
211,upernavik,72.7868,-56.1549,5.71,98,100,1.71,GL,1691889397
212,nemuro,43.3236,145.575,14.34,95,100,8.18,JP,1691889397
213,turayf,31.6725,38.6637,31.14,13,40,3.09,SA,1691889398
214,paamiut,61.994,-49.6678,6.85,81,72,1.88,GL,1691889398
215,banda aceh,5.5577,95.3222,27.58,75,93,5.26,ID,1691889399
216,pipar,26.3856,73.5378,25.3,82,98,6.0,IN,1691889399
217,yerbogachen,61.2767,108.0108,16.08,96,100,1.63,RU,1691889399
218,torbay,47.6666,-52.7314,17.54,88,75,8.23,CA,1691889399
219,wabana,47.6332,-52.9481,17.43,89,75,8.23,CA,1691889400
220,bastrop,32.7562,-91.8724,32.82,68,0,0.0,US,1691889400
221,novyy urengoy,66.0833,76.6333,7.86,50,0,6.57,RU,1691889400
222,vao,-22.6667,167.4833,19.06,52,0,1.73,NC,1691889401
223,gayny,60.3071,54.3241,13.05,83,6,0.84,RU,1691889402
224,celestun,20.8667,-90.4,29.5,75,5,8.39,MX,1691889402
225,nioro,13.35,-15.75,24.34,93,99,4.12,GM,1691889402
226,biloela,-24.4167,150.5,22.98,37,6,4.41,AU,1691889403
227,sivas,39.7916,37.0019,14.35,76,0,1.03,TR,1691889403
228,nacala,-14.5428,40.6728,18.94,89,0,2.76,MZ,1691889403
229,constitucion,-35.3333,-72.4167,11.34,65,45,3.4,CL,1691889404
230,kitale,1.0157,35.0062,11.95,92,5,0.65,KE,1691889404
231,piacabucu,-10.4056,-36.4344,22.58,82,11,3.99,BR,1691889404
232,port elizabeth,-33.918,25.5701,15.61,88,20,7.72,ZA,1691889405
233,marystown,47.1666,-55.1483,16.03,100,9,2.68,CA,1691889405
234,altus,34.6381,-99.334,31.73,78,75,15.95,US,1691889405
235,honiara,-9.4333,159.95,29.53,69,57,2.54,SB,1691889406
236,omboue,-1.5746,9.2618,23.08,88,91,4.51,GA,1691889406
237,tandil,-37.3217,-59.1332,0.38,65,55,1.97,AR,1691889406
238,aasiaat,68.7098,-52.8699,4.03,97,100,3.0,GL,1691889407
239,nokaneng,-19.6667,22.2667,16.75,32,5,4.61,BW,1691889407
240,nanortalik,60.1432,-45.2371,7.61,73,28,2.24,GL,1691889407
241,yar-sale,66.8333,70.8333,10.54,50,58,1.32,RU,1691889407
242,port blair,11.6667,92.75,27.02,89,40,2.06,IN,1691889408
243,makat,47.6469,53.3463,23.66,26,89,3.51,KZ,1691889408
244,tuatapere,-46.1333,167.6833,8.6,87,94,2.55,NZ,1691889408
245,ruteng,-8.6136,120.4721,20.04,65,88,0.73,ID,1691889409
246,ishigaki,24.3448,124.1572,31.07,79,20,2.06,JP,1691889409
247,victoria,22.2855,114.1577,30.54,81,100,4.02,HK,1691889409
248,gizo,-8.103,156.8419,26.59,85,58,8.87,SB,1691889410
249,preobrazheniye,42.9019,133.9064,21.78,76,5,6.21,RU,1691889410
250,tilichiki,60.4667,166.1,16.72,58,91,5.89,RU,1691889410
251,galesong,-5.3166,119.3661,28.01,65,64,2.44,ID,1691889411
252,lena,43.1,-5.7333,12.17,96,85,1.39,ES,1691889411
253,longyearbyen,78.2186,15.6401,8.91,93,75,2.57,SJ,1691889412
254,taltal,-25.4,-70.4833,15.05,84,0,0.44,CL,1691889372
255,la ronge,55.1001,-105.2842,18.12,82,75,1.54,CA,1691889412
256,ixtapa,20.7,-105.2,30.68,62,100,1.54,MX,1691889412
257,esperance,-33.8667,121.9,13.41,88,97,3.58,AU,1691889413
258,ulladulla,-35.35,150.4667,14.59,63,64,1.82,AU,1691889413
259,auki,-8.7676,160.7034,28.86,69,64,4.93,SB,1691889414
260,narsaq,60.9167,-46.05,9.12,69,12,0.4,GL,1691889414
261,krasnoselkup,65.7,82.4667,9.56,67,9,7.17,RU,1691889414
262,sira,13.7453,76.9092,21.67,82,100,4.31,IN,1691889415
263,miles city,46.4083,-105.8406,27.54,28,20,6.17,US,1691889415
264,biak,-0.9131,122.8766,26.33,72,72,2.92,ID,1691889415
265,san luis,-33.295,-66.3356,9.6,34,89,4.1,AR,1691889139
266,coquimbo,-29.9533,-71.3436,13.85,94,100,2.06,CL,1691889197
267,zherdevka,51.8486,41.4606,18.64,89,80,3.48,RU,1691889416
268,georgiyevka,43.0369,74.7114,16.02,72,0,3.0,KZ,1691889416
269,mahajanga,-15.7167,46.3167,21.95,78,5,1.54,MG,1691889417
270,aranos,-24.1333,19.1167,12.95,19,9,3.4,NA,1691889417
271,turukhansk,65.8167,87.9833,15.69,83,100,3.51,RU,1691889417
272,lagoa,39.05,-27.9833,23.42,88,100,1.34,PT,1691889418
273,batagay,67.6333,134.6333,18.21,56,100,2.69,RU,1691889418
274,ghanzi,-21.5667,21.7833,15.87,36,5,4.89,BW,1691889418
275,lahij,13.1667,44.5833,28.55,51,4,1.63,YE,1691889418
276,comodoro rivadavia,-45.8667,-67.5,5.92,65,40,1.54,AR,1691889419
277,marawi,7.9986,124.2928,24.75,75,100,1.1,PH,1691889419
278,ravenna,44.4167,11.9833,24.95,90,2,1.38,IT,1691889419
279,bonavista,48.6499,-53.1147,16.12,80,0,7.59,CA,1691889420
280,kuytun,54.3419,101.5036,17.7,91,100,2.82,RU,1691889420
281,hamilton,39.1834,-84.5333,28.35,73,40,2.57,US,1691889357
282,isiro,2.7739,27.616,19.57,99,100,1.37,CD,1691889421
283,odweyne,9.4092,45.064,23.06,55,5,6.57,SO,1691889421
284,saryg-sep,51.5,95.6,16.58,83,100,0.35,RU,1691889422
285,gold coast,-28.0,153.4333,27.24,61,0,3.09,AU,1691889399
286,nelson bay,-32.7167,152.15,17.27,73,71,1.79,AU,1691889423
287,samarai,-10.6167,150.6667,24.47,76,95,7.46,PG,1691889423
288,flinders,-34.5833,150.8552,17.81,66,86,1.24,AU,1691889424
289,zonnebeke,50.8726,2.9873,17.04,75,100,2.24,BE,1691889424
290,koupela,12.1794,-0.3517,25.55,83,100,3.38,BF,1691889425
291,cairns,-16.9167,145.7667,27.28,59,92,5.14,AU,1691889195
292,piopio,-38.4667,175.0167,13.94,70,100,1.67,NZ,1691889425
293,samfya,-11.3649,29.5565,13.74,64,10,3.09,ZM,1691889426
294,aksarka,66.5606,67.7975,11.47,49,17,2.07,RU,1691889426
295,pronsk,54.1048,39.6092,17.49,94,13,3.33,RU,1691889426
296,lorengau,-2.0226,147.2712,25.2,92,100,5.7,PG,1691889427
297,nouadhibou,20.931,-17.0347,26.99,78,40,1.03,MR,1691889427
298,lebu,-37.6167,-73.65,8.57,76,82,3.2,CL,1691889427
299,hanzhong,33.0728,107.0303,24.32,83,49,0.97,CN,1691889428
300,severnoye,56.3491,78.3619,7.52,88,100,3.84,RU,1691889428
301,san carlos,9.6612,-68.5827,23.8,95,66,0.94,VE,1691889429
302,burnie,-41.0667,145.9167,9.69,55,5,2.12,AU,1691889429
303,henties bay,-22.116,14.2845,11.51,90,0,1.44,NA,1691889429
304,terrace,54.5163,-128.6035,18.95,77,75,8.23,CA,1691889430
305,ahipara,-35.1667,173.1667,16.01,81,100,4.46,NZ,1691889430
306,labuhan,-6.8844,112.2051,25.43,71,22,3.7,ID,1691889430
307,san cristobal,7.7669,-72.225,24.1,91,7,1.27,VE,1691889431
308,karratha,-20.7377,116.8463,22.62,52,1,3.35,AU,1691889431
309,atikokan,48.7555,-91.6216,14.44,75,100,1.74,CA,1691889431
310,nishihara,26.1842,127.7558,31.03,76,20,2.57,JP,1691889432
311,camacha,33.0833,-16.3333,21.68,88,20,6.17,PT,1691889432
312,tubuala,9.5167,-79.0333,27.43,82,100,1.15,PA,1691889432
313,clyde,41.3042,-82.9752,24.19,68,9,3.86,US,1691889433
314,porto novo,6.4965,2.6036,24.31,87,100,3.5,BJ,1691889433
315,gamba,-2.65,10.0,21.69,93,91,3.1,GA,1691889433
316,sao felix do xingu,-6.6447,-51.995,25.02,40,0,1.07,BR,1691889211
317,brasy,49.837,13.5783,17.34,100,10,3.13,CZ,1691889434
318,sargatskoye,55.6101,73.4972,8.14,69,100,3.59,RU,1691889434
319,touros,-5.1989,-35.4608,23.84,85,14,5.5,BR,1691889435
320,sambava,-14.2667,50.1667,20.66,88,7,3.12,MG,1691889435
321,griffith,41.5284,-87.4237,27.96,60,0,2.06,US,1691889436
322,ratnagiri,16.9833,73.3,25.77,84,100,3.19,IN,1691889436
323,brokopondo,4.75,-55.1667,27.96,59,26,2.53,SR,1691889436
324,rio gallegos,-51.6226,-69.2181,2.03,69,0,3.6,AR,1691889437
325,jawhar,2.7809,45.5005,23.17,92,100,3.99,SO,1691889437
326,tias,28.9611,-13.645,26.82,54,0,3.09,ES,1691889438
327,kismayo,-0.3582,42.5454,24.45,83,18,4.9,SO,1691889438
328,salamiyah,35.0113,37.0532,30.94,25,6,0.36,SY,1691889438
329,salalah,17.0151,54.0924,26.05,94,75,2.57,OM,1691889439
330,port-gentil,-0.7193,8.7815,23.78,89,100,7.38,GA,1691889439
331,chuy,-33.6971,-53.4616,5.55,66,17,3.14,UY,1691889440
332,jumla,29.2747,82.1838,17.97,95,100,0.26,NP,1691889440
333,beni,0.5,29.4667,17.74,88,100,0.93,CD,1691889440
334,lyngseidet,69.5763,20.2189,11.0,83,95,0.35,NO,1691889441
335,tulun,54.5611,100.5792,16.87,92,100,3.26,RU,1691889441
336,maragogi,-9.0122,-35.2225,23.02,86,52,4.5,BR,1691889441
337,vyartsilya,62.1764,30.693,13.12,93,1,1.13,RU,1691889442
338,muisne,0.6,-80.0333,24.68,85,100,3.53,EC,1691889442
339,llanes,43.4198,-4.7549,19.84,84,100,0.15,ES,1691889442
340,lavrentiya,65.5833,-171.0,14.42,62,68,3.89,RU,1691889443
341,devonport,-41.1667,146.35,10.05,64,5,0.45,AU,1691889443
342,prince rupert,54.3161,-130.3201,17.05,87,100,11.32,CA,1691889403
343,quelimane,-17.8786,36.8883,18.97,88,20,1.03,MZ,1691889444
344,songadh,21.1667,73.5667,24.35,89,100,4.56,IN,1691889444
345,khandyga,62.6667,135.6,27.42,35,8,0.73,RU,1691889445
346,sukhumi,43.0033,41.0153,25.01,91,98,0.15,GE,1691889445
347,nador,35.174,-2.9287,25.14,94,0,1.03,MA,1691889446
348,kazachinskoye,57.6953,93.2761,14.04,98,100,1.5,RU,1691889446
349,atar,20.5169,-13.0499,33.74,37,11,3.1,MR,1691889446
350,atherton,53.5237,-2.4935,16.83,85,99,3.97,GB,1691889447
351,maltahohe,-24.8333,16.9833,10.64,36,91,3.44,NA,1691889447
352,chapleau,47.8405,-83.4034,13.05,100,100,4.63,CA,1691889448
353,takoradi,4.8845,-1.7554,23.81,90,92,4.73,GH,1691889448
354,ust-tsilma,65.441,52.1498,15.43,72,85,2.1,RU,1691889448
355,dunedin,-45.8742,170.5036,11.71,71,57,0.89,NZ,1691889449
356,hoima,1.4356,31.3436,17.96,88,29,0.27,UG,1691889450
357,de-kastri,51.4667,140.7833,17.38,87,100,2.89,RU,1691889450
358,port moresby,-9.4431,147.1797,26.07,67,95,5.21,PG,1691889450
359,milkovo,54.7167,158.6167,13.26,82,100,3.22,RU,1691889451
360,grindavik,63.8424,-22.4338,10.97,93,0,2.57,IS,1691889451
361,goundam,16.4145,-3.6708,33.81,36,100,3.19,ML,1691889452
362,belaya gora,68.5333,146.4167,19.2,49,100,5.08,RU,1691889452
363,sumbe,-11.2061,13.8437,19.06,91,38,3.07,AO,1691889452
364,port hueneme,34.1478,-119.1951,30.99,77,20,7.72,US,1691889453
365,alugan,12.2188,125.4808,28.06,77,99,3.78,PH,1691889453
366,saint-pierre,-21.3393,55.4781,20.87,83,0,2.57,RE,1691889453
367,geraldton,-28.7667,114.6,16.23,88,2,1.54,AU,1691889174
368,dhrangadhra,22.9833,71.4667,26.6,74,100,6.86,IN,1691889454
369,dzhankoy,45.7167,34.4,21.08,61,0,2.11,UA,1691889454
370,stabat,3.761,98.4513,26.11,92,100,1.15,ID,1691889455
371,rey bouba,8.6724,14.1786,22.37,98,100,1.24,CM,1691889455
372,inhambane,-23.865,35.3833,18.59,81,9,2.55,MZ,1691889455
373,gijon,43.5357,-5.6615,20.56,82,100,0.38,ES,1691889256
374,zhigansk,66.7697,123.3711,11.15,79,100,5.56,RU,1691889456
375,praya,14.9215,-23.5087,27.3,78,75,1.54,CV,1691889456
376,khandbari,27.3747,87.2039,23.5,92,100,0.3,NP,1691889457
377,chulucanas,-5.0925,-80.1625,24.88,65,94,4.29,PE,1691889457
378,coahuayana,18.7333,-103.6833,29.21,80,22,2.35,MX,1691889457
379,thunder bay,48.4001,-89.3168,17.99,77,40,1.54,CA,1691889444
380,puri,19.8,85.85,27.29,74,97,2.19,IN,1691889458
381,fayaoue,-20.65,166.5333,20.54,57,100,5.16,NC,1691889458
382,minot,48.2325,-101.2963,23.12,46,40,4.12,US,1691889459
383,oussouye,12.485,-16.5469,25.44,88,71,4.21,SN,1691889459
384,rincon,32.296,-81.2354,29.36,66,19,0.65,US,1691889459
385,ancud,-41.8697,-73.8203,9.98,93,100,9.99,CL,1691889460
386,pallasovka,50.05,46.8833,26.32,23,45,5.56,RU,1691889460
387,chara,56.9064,118.2631,20.07,70,77,0.9,RU,1691889460
388,limbang,4.75,115.0,30.06,84,100,0.99,MY,1691889461
389,agboville,5.928,-4.2132,22.11,94,70,1.99,CI,1691889461
390,norden,53.6,7.2,14.98,96,64,6.27,DE,1691889461
391,oktyabrskoye,43.0645,44.7417,22.08,88,40,1.0,RU,1691889461
392,martinsville,36.6915,-79.8725,27.47,89,0,1.54,US,1691889332
393,shelburne,44.0787,-80.2041,18.96,87,0,3.41,CA,1691889462
394,leshukonskoye,64.8989,45.7622,18.66,85,100,1.65,RU,1691889462
395,bosanski samac,45.0592,18.4669,15.7,68,9,1.01,BA,1691889463
396,pitea,65.3172,21.4794,16.05,98,98,3.04,SE,1691889463
397,tikhvin,59.6451,33.5294,18.45,98,100,2.59,RU,1691889463
398,kenai,60.5544,-151.2583,17.05,78,100,6.17,US,1691889464
399,komsomolskiy,40.4272,71.7189,21.4,49,0,1.03,UZ,1691889464
400,bosaso,11.2842,49.1816,32.39,39,0,7.58,SO,1691889464
401,cabedelo,-6.9811,-34.8339,23.37,85,40,5.02,BR,1691889465
402,ozernovskiy,51.5,156.5167,11.74,90,83,3.38,RU,1691889466
403,general roca,-39.0333,-67.5833,10.35,30,78,5.62,AR,1691889466
404,atambua,-9.1061,124.8925,26.84,53,3,1.31,ID,1691889466
405,solnechnyy,50.7214,136.6319,22.57,67,100,2.48,RU,1691889467
406,olafsvik,64.8945,-23.7142,11.8,79,24,3.68,IS,1691889468
407,zabol,32.25,67.25,21.94,21,0,2.93,AF,1691889468
408,racine,42.7495,-88.0751,26.88,68,0,1.54,US,1691889468
409,yumen,40.2833,97.2,27.17,24,100,3.71,CN,1691889469
410,normandin,48.8333,-72.5321,15.17,94,100,0.51,CA,1691889469
411,havre-saint-pierre,50.2334,-63.5986,16.0,94,0,3.6,CA,1691889469
412,baykit,61.67,96.37,17.64,80,96,1.78,RU,1691889470
413,pangoa,-12.1167,-73.0,19.68,97,71,1.3,PE,1691889470
414,santa vitoria do palmar,-33.5189,-53.3681,5.88,66,11,3.14,BR,1691889470
415,limpapa,7.1197,121.9106,28.63,77,95,2.0,PH,1691889471
416,sorong,-0.8833,131.25,27.93,71,72,4.86,ID,1691889471
417,padang,-0.9492,100.3543,25.03,82,35,1.08,ID,1691889472
418,asosa,10.0667,34.5333,15.67,94,100,1.75,ET,1691889472
419,ilembula,-8.9,34.5833,13.86,71,0,4.94,TZ,1691889472
420,kamiiso,41.8167,140.65,21.21,94,75,5.14,JP,1691889473
421,faro,37.0194,-7.9322,27.88,39,0,3.6,PT,1691889185
422,cheremnoye,53.1697,83.2133,12.33,91,100,1.94,RU,1691889473
423,jutai,-5.1833,-68.9,24.73,87,92,1.08,BR,1691889473
424,antalaha,-14.9003,50.2788,19.77,89,3,2.06,MG,1691889474
425,high level,58.5169,-117.136,24.06,41,40,2.06,CA,1691889474
426,la macarena,2.1837,-73.7849,22.63,94,36,0.95,CO,1691889375
427,bahia blanca,-38.7196,-62.2724,4.9,31,11,0.89,AR,1691889475
428,huarmey,-10.0681,-78.1522,19.8,82,6,4.29,PE,1691889475
429,porirua,-41.1333,174.85,13.68,91,100,8.68,NZ,1691889475
430,sechura,-5.5569,-80.8222,22.21,75,87,7.55,PE,1691889475
431,fortuna,40.5982,-124.1573,21.63,74,20,4.63,US,1691889476
432,yeppoon,-23.1333,150.7333,22.88,44,60,1.01,AU,1691889476
433,kurilsk,45.2333,147.8833,15.85,62,96,5.34,RU,1691889476
434,mercedes,-34.6515,-59.4307,6.69,42,28,0.87,AR,1691889315
435,yulara,-25.2406,130.9889,23.14,25,98,5.46,AU,1691889477
436,fez,34.0372,-4.9998,30.14,20,0,3.6,MA,1691889308
437,nerchinskiy zavod,51.3088,119.61,16.38,86,99,1.11,RU,1691889477
438,raudeberg,61.9875,5.1352,14.42,41,92,4.58,NO,1691889478
439,doctor arroyo,23.6667,-100.1833,23.01,50,96,1.7,MX,1691889478
440,bacolod,10.6667,122.95,28.25,80,76,5.2,PH,1691889478
441,zhuhai,22.2769,113.5678,29.88,94,40,5.66,CN,1691889479
442,bairiki,1.3292,172.9752,32.0,66,20,3.6,KI,1691889479
443,alice town,25.7167,-79.3,30.1,71,71,8.96,BS,1691889479
444,seybaplaya,19.65,-90.6667,30.7,80,55,7.34,MX,1691889480
445,booue,-0.0921,11.9385,23.6,91,100,0.95,GA,1691889480
446,beira,-19.8436,34.8389,16.05,88,20,2.06,MZ,1691889480
447,san juan,-31.5375,-68.5364,11.44,30,63,2.41,AR,1691889460
448,tual,-5.6667,132.75,25.31,81,35,9.71,ID,1691889481
449,inverness,57.4791,-4.224,13.8,94,99,1.03,GB,1691889481
450,pucara,-15.9803,-71.4606,3.07,31,77,2.02,PE,1691889481
451,kristiinankaupunki,62.2743,21.376,15.61,90,100,5.55,FI,1691889482
452,hendek,40.7994,30.7481,18.1,92,0,1.06,TR,1691889482
453,mecca,21.4267,39.8261,29.63,44,57,0.8,SA,1691889301
454,birin,26.8865,88.0718,18.19,99,100,1.09,NP,1691889483
455,sakakah,29.9697,40.2064,33.76,15,22,4.55,SA,1691889483
456,balykshi,47.0667,51.8667,25.0,23,0,6.0,KZ,1691889484
457,praia da vitoria,38.7333,-27.0667,24.14,83,75,4.38,PT,1691889484
458,beloha,-25.1667,45.05,15.16,86,0,2.23,MG,1691889484
459,tarauaca,-8.1614,-70.7656,22.16,98,52,1.39,BR,1691889253
460,hays,30.0502,-98.0336,36.83,43,4,2.68,US,1691889485
461,manisa,38.8333,28.1667,17.4,77,0,1.44,TR,1691889486
462,kinkala,-4.3614,14.7644,21.31,86,13,2.1,CG,1691889486
463,high rock,26.6208,-78.2833,29.01,70,100,5.86,BS,1691889486
464,lufilufi,-13.8745,-171.5986,28.77,78,25,3.67,WS,1691889487
465,miyako,39.6367,141.9525,27.99,83,88,2.4,JP,1691889487
466,san quintin,30.4833,-115.95,21.56,79,1,6.19,MX,1691889487
467,kavaratti,10.5669,72.642,27.49,74,100,5.43,IN,1691889488
468,bathsheba,13.2167,-59.5167,28.34,83,40,9.77,BB,1691889488
469,bambous virieux,-20.3428,57.7575,22.34,94,40,4.12,MU,1691889489
470,katherine,-14.4667,132.2667,28.18,39,47,4.63,AU,1691889489
471,oranjemund,-28.55,16.4333,12.41,90,70,2.74,NA,1691889489
472,caucaia,-3.7361,-38.6531,26.97,74,40,4.63,BR,1691889490
473,saint-denis,48.9167,2.3333,18.43,79,0,2.57,FR,1691889490
474,tocopilla,-22.092,-70.1979,17.52,75,12,1.61,CL,1691889491
475,dauriya,49.9333,116.8667,20.93,60,62,4.2,RU,1691889491
476,yertarskiy,56.7902,64.2995,7.44,73,19,2.25,RU,1691889491
477,mackay,-21.15,149.2,25.93,58,86,1.15,AU,1691889492
478,teya,60.3778,92.6267,15.26,88,100,0.48,RU,1691889492
479,cap malheureux,-19.9842,57.6142,22.48,83,27,1.34,MU,1691889494
480,shitanjing,39.2342,106.3439,24.7,37,29,2.75,CN,1691889494
481,sterling,39.0062,-77.4286,29.55,68,0,2.57,US,1691889494
482,ostrovnoy,68.0531,39.5131,13.95,90,100,5.72,RU,1691889495
483,sarangani,5.4033,125.4636,26.99,81,100,4.79,PH,1691889495
484,tazmalt,36.3868,4.3989,23.79,58,0,0.92,DZ,1691889495
485,klyuchi,52.2667,79.1667,12.27,92,100,3.84,RU,1691889496
486,heimberg,46.7948,7.6043,20.08,86,75,5.36,CH,1691889496
487,shevchenkove,49.6959,37.1735,14.99,72,0,1.47,UA,1691889497
488,kurumkan,54.3,110.3,20.36,68,0,1.36,RU,1691889497
489,dumbravita,45.7667,25.4333,13.38,93,0,0.6,RO,1691889497
490,karakol,42.4907,78.3936,12.82,78,6,0.98,KG,1691889498
491,wewak,-3.5534,143.6268,28.26,70,100,1.35,PG,1691889499
492,krasnyy oktyabr,56.1167,38.8833,17.67,84,49,2.5,RU,1691889499
493,strezhevoy,60.7333,77.5889,8.9,70,100,4.27,RU,1691889500
494,ambon,-3.6954,128.1814,25.88,83,59,6.88,ID,1691889500
495,vostok,46.4856,135.8833,25.88,58,0,0.85,RU,1691889501
496,popondetta,-8.7537,148.2534,30.53,45,99,1.87,PG,1691889501
497,san lorenzo,-25.3333,-57.5333,16.52,36,0,4.63,PY,1691889501
498,whitehorse,60.7161,-135.0538,16.43,72,75,9.77,CA,1691889502
499,sorland,67.667,12.6934,13.92,89,90,4.66,NO,1691889502
500,demirci,39.0461,28.6589,17.01,83,0,2.93,TR,1691889502
501,warrington,53.3925,-2.5802,17.15,87,20,5.14,GB,1691889324
502,mananjary,-21.2167,48.3333,20.15,91,62,2.57,MG,1691889503
503,nicoya,10.1483,-85.452,25.91,86,100,1.45,CR,1691889504
504,chicama,-7.8447,-79.1469,20.3,82,100,2.63,PE,1691889504
505,puerto escondido,15.85,-97.0667,30.46,54,40,2.57,MX,1691889504
506,tautira,-17.7333,-149.15,24.61,69,24,5.52,PF,1691889505
507,san jeronimo,-11.9472,-75.2829,9.59,78,33,0.66,PE,1691889505
508,bakel,14.905,-12.4568,26.84,81,100,5.29,SN,1691889506
509,duncan,34.5023,-97.9578,27.94,57,40,6.17,US,1691889506
510,bundaberg,-24.85,152.35,22.96,46,3,3.9,AU,1691889506
511,bukachacha,52.9833,116.9167,17.71,87,100,1.7,RU,1691889507
512,salym,60.0625,71.4789,7.65,63,17,3.34,RU,1691889507
513,kununurra,-15.7667,128.7333,28.99,37,2,2.06,AU,1691889210
514,namatanai,-3.6667,152.4333,26.67,85,100,4.39,PG,1691889508
515,sant,47.45,24.9,12.21,83,0,0.86,RO,1691889508
516,sinnamary,5.3833,-52.95,26.28,85,23,4.22,GF,1691889508
517,jiexiu,37.0244,111.9125,27.23,47,15,1.78,CN,1691889509
518,tomatlan,19.9333,-105.25,29.61,76,56,2.7,MX,1691889509
519,kieta,-6.2167,155.6333,27.05,87,100,4.13,PG,1691889510
520,vardo,70.3705,31.1107,13.99,88,100,5.66,NO,1691889510
521,sungairaya,0.7,108.9,27.07,71,85,3.26,ID,1691889511
522,bartica,6.4,-58.6167,26.18,89,11,1.26,GY,1691889511
523,amahai,-3.3333,128.9167,26.08,81,76,3.2,ID,1691889512
524,damietta,31.4165,31.8133,25.69,78,2,4.76,EG,1691889512
525,kasane,-17.8167,25.15,13.93,49,0,1.65,BW,1691889512
526,nuuk,64.1835,-51.7216,8.34,87,100,5.14,GL,1691889513
527,itarema,-2.9248,-39.9167,24.98,82,100,4.77,BR,1691889240
528,beringovskiy,63.05,179.3167,8.67,90,100,6.45,RU,1691889513
529,dubbo,-32.25,148.6167,15.07,63,100,2.06,AU,1691889250
530,lishu,43.3047,124.3278,22.04,93,100,0.94,CN,1691889514
531,carutapera,-1.195,-46.02,25.17,85,69,3.23,BR,1691889515
532,adrar,20.5022,-10.0711,34.46,19,81,2.23,MR,1691889515
533,saint-joseph,-21.3667,55.6167,20.26,86,49,5.63,RE,1691889515
534,porto nacional,-10.7081,-48.4172,24.0,27,5,0.46,BR,1691889516
535,loja,-3.9931,-79.2042,13.22,36,12,7.6,EC,1691889392
536,colac,-38.3333,143.5833,10.09,64,37,1.17,AU,1691889516
537,liepaja,56.5419,21.0367,14.99,88,0,2.57,LV,1691889517
538,waitati,-45.75,170.5667,11.71,71,66,1.96,NZ,1691889517
539,tombouctou,20.0,-3.0,34.84,16,6,1.53,ML,1691889517
540,paola,39.3599,16.0396,21.62,61,0,2.03,IT,1691889518
541,zaranj,30.9667,61.8833,28.57,22,0,12.21,AF,1691889518
542,linjiang,41.8069,126.9078,20.42,96,100,0.73,CN,1691889518
543,juneau,58.3019,-134.4197,15.12,98,100,9.26,US,1691889518
544,manavgat,36.7867,31.4431,25.49,35,0,1.55,TR,1691889519
545,esso,55.9333,158.7,13.14,82,94,1.5,RU,1691889519
546,athni,16.7333,75.0667,21.53,87,99,4.64,IN,1691889519
547,severo-kurilsk,50.6789,156.125,13.26,83,18,4.46,RU,1691889520
548,nizhneudinsk,54.9076,99.0276,18.33,89,77,2.26,RU,1691889520
549,akdagmadeni,39.6603,35.8836,16.17,81,8,1.98,TR,1691889520
550,kupang,-10.1667,123.5833,28.03,58,3,2.89,ID,1691889521
551,zonguldak,41.25,31.8333,15.47,92,0,0.94,TR,1691889521
552,vernon,50.2581,-119.2691,30.52,28,98,1.79,CA,1691889521
553,alvaraes,-3.2208,-64.8042,26.84,62,38,1.23,BR,1691889521
554,acarau,-2.8856,-40.12,24.87,82,100,4.61,BR,1691889522
555,mufulira,-12.5498,28.2407,11.75,54,5,1.93,ZM,1691889522
556,socorro,31.6546,-106.3033,36.38,27,20,0.0,US,1691889522
557,dongsheng,39.8161,109.9776,23.83,40,0,2.12,CN,1691889523
558,deyang,31.1302,104.382,26.38,79,8,0.46,CN,1691889523
559,veraval,20.9,70.3667,26.28,85,100,7.56,IN,1691889523
560,pueblo nuevo,23.3833,-105.3833,18.77,88,81,1.53,MX,1691889524
561,maniitsoq,65.4167,-52.9,7.16,89,93,2.63,GL,1691889495
562,bambanglipuro,-7.95,110.2833,23.72,73,98,1.16,ID,1691889524
563,kipini,-2.5257,40.5262,23.16,85,0,5.46,KE,1691889524
564,buseresere,-3.0236,31.8747,19.19,57,17,1.03,TZ,1691889525
565,malakal,9.5334,31.6605,23.04,92,79,0.67,SS,1691889525
566,liku,-0.7275,119.8922,28.38,68,89,0.45,ID,1691889525
567,crossville,35.949,-85.0269,20.95,96,0,1.79,US,1691889526
568,glendive,47.1053,-104.7125,24.79,38,100,5.66,US,1691889526
